stop_id,stop_code,stop_name,stop_desc,stop_lat,stop_lon,zone_id,stop_url,location_type,parent_station,stop_timezone,wheelchair_boarding,platform_code
1003_1,,市役所前,,33.838875,132.764616,1003_1,,0,,,,
1003_3,,市役所前,,33.838703,132.764780,1003_3,,0,,,,
1004_1,,県庁前,,33.841163,132.766048,1004_1,,0,,,,
1004_2,,県庁前,,33.840957,132.766196,1004_2,,0,,,,
1005_1,,一番町,,33.841462,132.769523,1005_1,,0,,,,
1006_1,,大街道,,33.841373,132.770961,1006_1,,0,,,,
1006_2,,大街道,,33.841038,132.769243,1006_2,,0,,,,
1006_3,,大街道,,33.841248,132.769405,1006_3,,0,,,,
1006_4,,大街道,,33.841341,132.771094,1006_4,,0,,,,
1007_1,,一番町一,,33.841697,132.774044,1007_1,,0,,,,
1007_2,,一番町一,,33.841526,132.774398,1007_2,,0,,,,
1008_1,,南持田,,33.841659,132.777107,1008_1,,0,,,,
1008_2,,南持田,,33.841586,132.776837,1008_2,,0,,,,
1009_1,,東高前,,33.841486,132.779532,1009_1,,0,,,,
1009_2,,東高前,,33.841369,132.779527,1009_2,,0,,,,
1010_1,,付属中学前,,33.841414,132.782636,1010_1,,0,,,,
1010_2,,付属中学前,,33.841319,132.782229,1010_2,,0,,,,
1011_1,,湯渡町,,33.840845,132.785153,1011_1,,0,,,,
1011_2,,湯渡町,,33.840881,132.784948,1011_2,,0,,,,
1013_1,,県警察官舎前,,33.837805,132.787981,1013_1,,0,,,,
1013_2,,県警察官舎前,,33.837608,132.788171,1013_2,,0,,,,
1014_1,,一里木,,33.836301,132.789935,1014_1,,0,,,,
1015_1,,桑原,,33.834709,132.791982,1015_1,,0,,,,
1016_1,,短大前,,33.831949,132.796052,1016_1,,0,,,,
1016_2,,短大前,,33.832063,132.795730,1016_2,,0,,,,
1017_1,,畑寺一丁地,,33.831503,132.796908,1017_1,,0,,,,
1017_2,,畑寺一丁地,,33.831407,132.796898,1017_2,,0,,,,
1018_1,,畑寺,,33.829214,132.797943,1018_1,,0,,,,
1018_2,,畑寺,,33.829002,132.797797,1018_2,,0,,,,
1019_1,,繁多寺口,,33.827615,132.798005,1019_1,,0,,,,
1020_1,,三町,,33.825848,132.798926,1020_1,,0,,,,
1020_2,,三町,,33.825140,132.799720,1020_2,,0,,,,
1021_1,,北野,,33.823130,132.801640,1021_1,,0,,,,
1021_2,,北野,,33.822919,132.801720,1021_2,,0,,,,
1022_1,,日尾公園前,,33.818159,132.804711,1022_1,,0,,,,
1022_2,,日尾公園前,,33.818089,132.804551,1022_2,,0,,,,
1023_1,,久米,,33.816568,132.805998,1023_1,,0,,,,
1023_2,,久米,,33.816738,132.804937,1023_2,,0,,,,
1023_3,,久米,,33.816533,132.805296,1023_3,,0,,,,
1024_1,,久米駅前,,33.816394,132.804440,1024_1,,0,,,,
1024_21,,久米駅前,,33.816391,132.804457,1024_21,,0,,,,
1028_1,,千舟町七,,33.836816,132.756535,1028_1,,0,,,,
1028_2,,千舟町七,,33.836919,132.757392,1028_2,,0,,,,
1029_1,,松山コミュ二ティセンター前,,33.836886,132.753515,1029_1,,0,,,,
1029_2,,松山コミュ二ティセンター前,,33.836992,132.754311,1029_2,,0,,,,
1030_1,,市民病院口,,33.838278,132.752383,1030_1,,0,,,,
1030_2,,市民病院口,,33.838146,132.752551,1030_2,,0,,,,
1031_1,,宮田町,,33.842286,132.752239,1031_1,,0,,,,
1031_2,,宮田町,,33.842616,132.752456,1031_2,,0,,,,
1032_1,,宮西町,,33.844867,132.752126,1032_1,,0,,,,
1032_2,,宮西町,,33.845012,132.752353,1032_2,,0,,,,
1033_1,,朝美二丁目,,33.845240,132.747243,1033_1,,0,,,,
1033_2,,朝美二丁目,,33.845303,132.747267,1033_2,,0,,,,
1036_1,,朝日八幡前,,33.840085,132.743683,1036_1,,0,,,,
1037_1,,大宝寺口,,33.839579,132.741827,1037_1,,0,,,,
1038_1,,丸山,,33.838652,132.739734,1038_1,,0,,,,
1038_2,,丸山,,33.838684,132.739517,1038_2,,0,,,,
1039_1,,ＮＴＴ研修センター前,,33.836362,132.737696,1039_1,,0,,,,
1040_1,,北斎院住宅前,,33.835515,132.736627,1040_1,,0,,,,
1041_1,,北斎院,,33.835686,132.734529,1041_1,,0,,,,
1042_1,,地蔵前,,33.837293,132.731962,1042_1,,0,,,,
1043_1,,中津,,33.837664,132.729895,1043_1,,0,,,,
1044_1,,味生団地前,,33.840065,132.727299,1044_1,,0,,,,
1044_2,,味生団地前,,33.840002,132.727405,1044_2,,0,,,,
1045_1,,味生,,33.841770,132.727093,1045_1,,0,,,,
1045_2,,味生,,33.841151,132.726728,1045_2,,0,,,,
1046_1,,御産所,,33.846071,132.725148,1046_1,,0,,,,
1047_1,,別府⑩,,33.845834,132.722325,1047_1,,0,,,,
1048_1,,津田団地前,,33.841255,132.722522,1048_1,,0,,,,
1050_1,,松山総合公園前,,33.843335,132.745177,1050_1,,0,,,,
1050_2,,松山総合公園前,,33.842450,132.744674,1050_2,,0,,,,
1308_1,,千舟町一,,33.836443,132.772666,1308_1,,0,,,,
1326_1,,高尾田東,,33.782245,132.797264,1326_1,,0,,,,
1327_1,,広瀬,,33.782782,132.803070,1327_1,,0,,,,
1328_1,,大橋町,,33.781602,132.811608,1328_1,,0,,,,
1329_1,,小村,,33.781333,132.814597,1329_1,,0,,,,
1330_1,,政友口,,33.779394,132.822980,1330_1,,0,,,,
1331_1,,中野,,33.778761,132.826158,1331_1,,0,,,,
1332_1,,中野石鎚前,,33.778294,132.833011,1332_1,,0,,,,
1333_1,,鶴羽,,33.775422,132.839441,1333_1,,0,,,,
1334_1,,竹の下,,33.774424,132.845483,1334_1,,0,,,,
1334_2,,竹の下,,33.774252,132.845069,1334_2,,0,,,,
1335_1,,上村,,33.774890,132.848306,1335_1,,0,,,,
1335_2,,上村,,33.774984,132.849578,1335_2,,0,,,,
1336_1,,宮の段,,33.775619,132.856632,1336_1,,0,,,,
1336_2,,宮の段,,33.775498,132.857209,1336_2,,0,,,,
1337_1,,仙幸寺,,33.776878,132.863912,1337_1,,0,,,,
1337_2,,仙幸寺,,33.776881,132.864157,1337_2,,0,,,,
1338_1,,別府（拝志）,,33.778418,132.870364,1338_1,,0,,,,
1338_2,,別府（拝志）,,33.778272,132.870401,1338_2,,0,,,,
1339_1,,拝志農協前,,33.782238,132.875966,1339_1,,0,,,,
1339_2,,拝志農協前,,33.782062,132.875723,1339_2,,0,,,,
1340_1,,横根,,33.779220,132.881543,1340_1,,0,,,,
1341_1,,下八幡,,33.774920,132.884365,1341_1,,0,,,,
1342_1,,拝志神社前,,33.770311,132.883760,1342_1,,0,,,,
1343_1,,利山入口,,33.767033,132.883791,1343_1,,0,,,,
1344_1,,二の瀬,,33.763960,132.885696,1344_1,,0,,,,
1345_1,,友清,,33.759875,132.887943,1345_1,,0,,,,
1346_1,,札場,,33.757210,132.887643,1346_1,,0,,,,
1347_1,,五本松（上林）,,33.754029,132.886437,1347_1,,0,,,,
1348_1,,上林皿ヶ嶺登山口,,33.749617,132.886901,1348_1,,0,,,,
1506_1,,一番町二,,33.840742,132.772269,1506_1,,0,,,,
1506_2,,一番町二,,33.840599,132.772158,1506_2,,0,,,,
1507_1,,三番町二,,33.838466,132.772231,1507_1,,0,,,,
1507_2,,三番町二,,33.838031,132.772111,1507_2,,0,,,,
1509_1,,北立花町,,33.835377,132.772741,1509_1,,0,,,,
1510_1,,河原町,,33.834464,132.770825,1510_1,,0,,,,
1510_2,,河原町,,33.835415,132.770499,1510_2,,0,,,,
1510_3,,河原町,,33.835305,132.771574,1510_3,,0,,,,
1511_1,,立花橋,,33.832458,132.771428,1511_1,,0,,,,
1512_1,,立花駅前,,33.827201,132.773784,1512_1,,0,,,,
1512_2,,立花駅前,,33.827712,132.773495,1512_2,,0,,,,
1513_1,,朝生田町東,,33.823671,132.775187,1513_1,,0,,,,
1513_2,,朝生田町東,,33.823725,132.775065,1513_2,,0,,,,
1514_1,,天山変電所西,,33.820993,132.776345,1514_1,,0,,,,
1514_2,,天山変電所西,,33.821097,132.776025,1514_2,,0,,,,
1515_1,,天山橋,,33.817103,132.777263,1515_1,,0,,,,
1515_2,,天山橋,,33.816939,132.776919,1515_2,,0,,,,
1516_1,,東石井,,33.813217,132.778424,1516_1,,0,,,,
1516_2,,東石井,,33.814369,132.777638,1516_2,,0,,,,
1517_1,,椿前,,33.809831,132.779977,1517_1,,0,,,,
1517_2,,椿前,,33.808830,132.780236,1517_2,,0,,,,
1518_1,,南石井,,33.804436,132.782464,1518_1,,0,,,,
1518_2,,南石井,,33.804842,132.782053,1518_2,,0,,,,
1519_1,,乙井橋,,33.801957,132.783628,1519_1,,0,,,,
1519_2,,乙井橋,,33.803154,132.782832,1519_2,,0,,,,
1520_1,,南井門,,33.797479,132.785666,1520_1,,0,,,,
1520_2,,南井門,,33.798181,132.785087,1520_2,,0,,,,
1521_1,,運輸支局前,,33.794049,132.787293,1521_1,,0,,,,
1521_2,,運輸支局前,,33.794557,132.786792,1521_2,,0,,,,
1522_1,,森松,,33.790466,132.788802,1522_1,,0,,,,
1522_2,,森松,,33.790505,132.788964,1522_2,,0,,,,
1523_1,,森松橋詰,,33.787904,132.789865,1523_1,,0,,,,
1523_2,,森松橋詰,,33.787878,132.789799,1523_2,,0,,,,
1524_1,,高尾田北口,,33.783956,132.791520,1524_1,,0,,,,
1524_2,,高尾田北口,,33.783568,132.791579,1524_2,,0,,,,
1525_1,,高尾田,,33.782113,132.792271,1525_1,,0,,,,
1525_2,,高尾田,,33.782746,132.791916,1525_2,,0,,,,
1526_1,,麻生,,33.777714,132.792628,1526_1,,0,,,,
1526_2,,麻生,,33.777484,132.792568,1526_2,,0,,,,
1527_1,,下原町,,33.775987,132.792842,1527_1,,0,,,,
1527_2,,下原町,,33.775947,132.792792,1527_2,,0,,,,
1528_1,,南ヶ丘団地口,,33.772050,132.792190,1528_1,,0,,,,
1528_2,,南ヶ丘団地口,,33.772084,132.792102,1528_2,,0,,,,
1529_1,,原町,,33.770379,132.790663,1529_1,,0,,,,
1529_2,,原町,,33.770294,132.790527,1529_2,,0,,,,
1530_1,,総合運動公園口,,33.766566,132.789723,1530_1,,0,,,,
1530_2,,総合運動公園口,,33.766415,132.789626,1530_2,,0,,,,
1531_1,,とべ動物園前,,33.766917,132.794170,1531_1,,0,,,,
1531_2,,とべ動物園前,,33.767072,132.792638,1531_2,,0,,,,
1532_1,,陸上競技場前,,33.767373,132.796198,1532_1,,0,,,,
1532_2,,陸上競技場前,,33.766912,132.797010,1532_2,,0,,,,
1533_1,,えひめこどもの城,,33.762066,132.799012,1533_1,,0,,,,
1534_1,,通谷口,,33.760119,132.790172,1534_1,,0,,,,
1534_2,,通谷口,,33.760051,132.790066,1534_2,,0,,,,
1535_1,,供養堂,,33.756957,132.789909,1535_1,,0,,,,
1535_2,,供養堂,,33.756929,132.789615,1535_2,,0,,,,
1536_1,,宮内,,33.752231,132.787637,1536_1,,0,,,,
1536_2,,宮内,,33.752189,132.787564,1536_2,,0,,,,
1537_1,,幸田口,,33.749924,132.788691,1537_1,,0,,,,
1538_1,,砥部向南台前,,33.747152,132.790211,1538_1,,0,,,,
1538_2,,砥部向南台前,,33.747270,132.790083,1538_2,,0,,,,
1539_1,,千足,,33.744507,132.791555,1539_1,,0,,,,
1540_1,,砥部焼観光センター口,,33.741995,132.792548,1540_1,,0,,,,
1541_1,,砥部戎,,33.740561,132.792887,1541_1,,0,,,,
1542_1,,砥部焼伝統産業会館前,,33.739569,132.793013,1542_1,,0,,,,
1542_2,,砥部焼伝統産業会館前,,33.739557,132.792955,1542_2,,0,,,,
1543_1,,砥部町大南,,33.738521,132.794447,1543_1,,0,,,,
1543_2,,砥部町大南,,33.738701,132.794331,1543_2,,0,,,,
1544_1,,新岩谷口,,33.736256,132.794602,1544_1,,0,,,,
1544_2,,新岩谷口,,33.736209,132.794501,1544_2,,0,,,,
1545_1,,砥部断層北,,33.733851,132.795058,1545_1,,0,,,,
1545_2,,砥部断層北,,33.733896,132.794923,1545_2,,0,,,,
1546_1,,大岩橋,,33.730968,132.796729,1546_1,,0,,,,
1546_2,,大岩橋,,33.730968,132.796729,1546_2,,0,,,,
1547_1,,砥部町中通,,33.737619,132.792918,1547_1,,0,,,,
1548_1,,砥部町客,,33.735332,132.792728,1548_1,,0,,,,
1549_1,,断層口,,33.731981,132.793871,1549_1,,0,,,,
1552_1,,西野,,33.768532,132.802180,1552_1,,0,,,,
1552_2,,西野,,33.768528,132.802039,1552_2,,0,,,,
1555_1,,砥部町役場西,,33.748678,132.789795,1555_1,,0,,,,
1555_2,,砥部町役場西,,33.748682,132.789725,1555_2,,0,,,,
2233_1,,樋の口,,33.806557,132.888699,2233_1,,0,,,,
2234_1,,菖蒲,,33.814891,132.895230,2234_1,,0,,,,
2235_1,,井口,,33.820069,132.899769,2235_1,,0,,,,
2236_1,,大畑,,33.823789,132.900043,2236_1,,0,,,,
2237_1,,除,,33.830038,132.901061,2237_1,,0,,,,
2238_1,,御所,,33.835130,132.898975,2238_1,,0,,,,
2239_1,,荒木谷口,,33.840934,132.898350,2239_1,,0,,,,
2240_1,,荒木谷,,33.843451,132.898447,2240_1,,0,,,,
2241_1,,竹谷,,33.848268,132.895517,2241_1,,0,,,,
2242_1,,岡,,33.853172,132.897006,2242_1,,0,,,,
2243_1,,福見山登山口,,33.858510,132.899154,2243_1,,0,,,,
2244_1,,神子野,,33.861765,132.909358,2244_1,,0,,,,
2245_1,,藤之内,,33.862807,132.918830,2245_1,,0,,,,
2246_1,,木地堰堤,,33.870250,132.939603,2246_1,,0,,,,
2247_1,,木地,,33.869860,132.946415,2247_1,,0,,,,
2248_1,,愛媛医療センター前,,33.800263,132.882081,2248_1,,0,,,,
2249_1,,看護学校入口,,33.798202,132.880217,2249_1,,0,,,,
2250_1,,みなら特別支援学校前,,33.796268,132.878942,2250_1,,0,,,,
2251_1,,刑務所官舎前,,33.794082,132.877535,2251_1,,0,,,,
2252_1,,見奈良口,,33.791324,132.874078,2252_1,,0,,,,
2252_2,,見奈良口,,33.791277,132.873720,2252_2,,0,,,,
2253_1,,東温市役所,,33.791344,132.871507,2253_1,,0,,,,
2253_2,,東温市役所,,33.791275,132.871479,2253_2,,0,,,,
2255_1,,利楽温泉,,33.791383,132.878959,2255_1,,0,,,,
2301_1,,森松東,,33.790983,132.792453,2301_1,,0,,,,
2302_1,,浮穴学校前,,33.790986,132.796737,2302_1,,0,,,,
2303_1,,一丁地,,33.791017,132.802556,2303_1,,0,,,,
2304_1,,正友神社口,,33.791051,132.808259,2304_1,,0,,,,
2305_1,,杖ノ淵公園前,,33.791022,132.811354,2305_1,,0,,,,
2306_2,,南高井,,33.791037,132.814525,2306_2,,0,,,,
2306_3,,南高井,,33.791117,132.815028,2306_3,,0,,,,
2307_1,,南高井東,,33.790934,132.818526,2307_1,,0,,,,
2307_2,,南高井東,,33.791006,132.818367,2307_2,,0,,,,
2308_1,,南高井病院前,,33.788146,132.823550,2308_1,,0,,,,
2312_1,,南高井病院口,,33.791236,132.823819,2312_1,,0,,,,
2313_1,,ウェルケア重信口,,33.791035,132.832030,2313_1,,0,,,,
2313_2,,ウェルケア重信口,,33.790856,132.832743,2313_2,,0,,,,
2314_1,,西光寺前,,33.789575,132.838675,2314_1,,0,,,,
2314_2,,西光寺前,,33.789422,132.839761,2314_2,,0,,,,
2315_1,,工業団地口,,33.789788,132.845174,2315_1,,0,,,,
2316_1,,南吉井小学校前,,33.790578,132.851907,2316_1,,0,,,,
2316_2,,南吉井小学校前,,33.790473,132.851898,2316_2,,0,,,,
2317_1,,牛渕駅口,,33.791054,132.858198,2317_1,,0,,,,
2317_2,,牛渕駅口,,33.790954,132.858213,2317_2,,0,,,,
2318_1,,田窪,,33.791434,132.864978,2318_1,,0,,,,
2318_2,,田窪,,33.791354,132.864442,2318_2,,0,,,,
3020_1,,古川北三丁目,,33.810482,132.765532,3020_1,,0,,,,
3020_2,,古川北三丁目,,33.810629,132.765700,3020_2,,0,,,,
3103_1,,済美高前,,33.836368,132.758876,3103_1,,0,,,,
3103_2,,済美高前,,33.835636,132.758609,3103_2,,0,,,,
3103_3,,済美高前,,33.836756,132.759490,3103_3,,0,,,,
3104_1,,雄郡小学校東門前,,33.831872,132.758968,3104_1,,0,,,,
3104_2,,雄郡小学校東門前,,33.831874,132.758751,3104_2,,0,,,,
3105_1,,雄郡神社東,,33.827260,132.759043,3105_1,,0,,,,
3105_2,,雄郡神社東,,33.827249,132.758762,3105_2,,0,,,,
3106_1,,愛媛朝日テレビ前,,33.824080,132.757992,3106_1,,0,,,,
3106_2,,愛媛朝日テレビ前,,33.823991,132.757627,3106_2,,0,,,,
3107_1,,和泉,,33.821563,132.759030,3107_1,,0,,,,
3107_2,,和泉,,33.821568,132.758912,3107_2,,0,,,,
3108_1,,吉木橋,,33.818641,132.760346,3108_1,,0,,,,
3108_2,,吉木橋,,33.818676,132.760155,3108_2,,0,,,,
3109_1,,北古川,,33.813142,132.760783,3109_1,,0,,,,
3109_2,,北古川,,33.812569,132.760723,3109_2,,0,,,,
3110_1,,古川,,33.808051,132.760809,3110_1,,0,,,,
3110_2,,古川,,33.807857,132.760649,3110_2,,0,,,,
3110_3,,古川,,33.808736,132.762218,3110_3,,0,,,,
3110_4,,古川,,33.808696,132.762067,3110_4,,0,,,,
3111_1,,南古川,,33.805440,132.759286,3111_1,,0,,,,
3111_2,,南古川,,33.805562,132.759249,3111_2,,0,,,,
3112_1,,中川原橋詰,,33.800855,132.756490,3112_1,,0,,,,
3113_1,,中川原,,33.798383,132.754768,3113_1,,0,,,,
3114_1,,西中川原,,33.797886,132.753218,3114_1,,0,,,,
3115_1,,小松原,,33.791846,132.751338,3115_1,,0,,,,
3116_1,,北伊予駅前,,33.787385,132.749859,3116_1,,0,,,,
3308_1,,泉永寺前,,33.817824,132.755799,3308_1,,0,,,,
3308_2,,泉永寺前,,33.818165,132.756263,3308_2,,0,,,,
3309_1,,市坪橋,,33.815999,132.752439,3309_1,,0,,,,
3309_2,,市坪橋,,33.816059,132.752404,3309_2,,0,,,,
3310_1,,市坪住宅前,,33.813198,132.752483,3310_1,,0,,,,
3310_2,,市坪住宅前,,33.813356,132.752431,3310_2,,0,,,,
3311_1,,市坪,,33.809676,132.753521,3311_1,,0,,,,
3311_2,,市坪,,33.809637,132.753198,3311_2,,0,,,,
3312_1,,西古川,,33.809650,132.756999,3312_1,,0,,,,
3312_2,,西古川,,33.809607,132.757113,3312_2,,0,,,,
3313_1,,古川横田,,33.808751,132.765020,3313_1,,0,,,,
3313_2,,古川横田,,33.808683,132.764541,3313_2,,0,,,,
3314_2,,椿団地前,,33.808604,132.768870,3314_2,,0,,,,
3315_1,,椿神社前,,33.809249,132.771958,3315_1,,0,,,,
3316_1,,精農橋,,33.819993,132.765439,3316_1,,0,,,,
3316_2,,精農橋,,33.820021,132.765601,3316_2,,0,,,,
3317_1,,和泉団地前,,33.817196,132.765492,3317_1,,0,,,,
3317_2,,和泉団地前,,33.817354,132.765638,3317_2,,0,,,,
3318_1,,古川北一丁目,,33.815568,132.765524,3318_1,,0,,,,
3318_2,,古川北一丁目,,33.815739,132.765704,3318_2,,0,,,,
3319_1,,古川北二丁目,,33.813187,132.765547,3319_1,,0,,,,
3319_2,,古川北二丁目,,33.813185,132.765724,3319_2,,0,,,,
3420_1,,内子,,33.549654,132.652376,3420_1,,0,,,,
3426_1,,大洲本町,,33.506979,132.545048,3426_1,,0,,,,
3432_1,,八幡浜駅前,,33.458425,132.434645,3432_1,,0,,,,
3501_1,,文化センター前,,33.786415,132.711833,3501_1,,0,,,,
3502_1,,エミアミューズ前,,33.787386,132.715519,3502_1,,0,,,,
3503_1,,エミフルまさき,,33.790397,132.715355,3503_1,,0,,,,
3504_1,,古泉駅前,,33.792271,132.716992,3504_1,,0,,,,
3505_1,,東古泉,,33.786452,132.720215,3505_1,,0,,,,
3506_1,,ＪＡ松山市永田出張所前,,33.785607,132.728139,3506_1,,0,,,,
3507_1,,鶴吉,,33.784882,132.732130,3507_1,,0,,,,
3507_2,,鶴吉,,33.784762,132.734571,3507_2,,0,,,,
3508_1,,ＪＡ松山市鶴吉倉庫前,,33.785158,132.738539,3508_1,,0,,,,
3508_2,,ＪＡ松山市鶴吉倉庫前,,33.785078,132.738632,3508_2,,0,,,,
3509_1,,晴光院前,,33.784484,132.742189,3509_1,,0,,,,
3510_1,,北伊予小学校前,,33.784871,132.745340,3510_1,,0,,,,
3511_1,,北伊予踏切前,,33.785128,132.748210,3511_1,,0,,,,
3512_1,,ＪＡ松山市北伊予支所前,,33.786413,132.749225,3512_1,,0,,,,
3513_1,,ニ名保育所前,,33.787581,132.751901,3513_1,,0,,,,
3514_1,,徳丸公園前,,33.788544,132.757202,3514_1,,0,,,,
3515_1,,徳丸老人憩いの家前,,33.789102,132.759973,3515_1,,0,,,,
3516_1,,徳丸常夜灯前,,33.790953,132.761291,3516_1,,0,,,,
3517_1,,徳丸集会所前,,33.792919,132.758547,3517_1,,0,,,,
3518_1,,徳丸水源地前,,33.794446,132.756116,3518_1,,0,,,,
3519_1,,中川原西,,33.798314,132.753213,3519_1,,0,,,,
3520_1,,中川原踏切,,33.798095,132.748586,3520_1,,0,,,,
3521_1,,大間集会所前,,33.797971,132.737027,3521_1,,0,,,,
3522_1,,白鶴保育所前,,33.798647,132.732859,3522_1,,0,,,,
3523_1,,上高柳集会所前,,33.798544,132.730499,3523_1,,0,,,,
3524_1,,むかいだ小児科前,,33.798572,132.725853,3524_1,,0,,,,
3525_1,,福祉センター前,,33.787317,132.713096,3525_1,,0,,,,
3526_1,,フィッタ前,,33.789793,132.713408,3526_1,,0,,,,
3601_1,,伊予スイミング前,,33.777144,132.708610,3601_1,,0,,,,
3602_1,,黒田保育所前,,33.777173,132.706256,3602_1,,0,,,,
3603_1,,武智酒造前,,33.778841,132.703555,3603_1,,0,,,,
3604_1,,松前小学校前,,33.782645,132.703381,3604_1,,0,,,,
3605_1,,中村酒店前,,33.785728,132.702798,3605_1,,0,,,,
3606_1,,夫婦橋,,33.787296,132.702409,3606_1,,0,,,,
3607_1,,大念寺前,,33.789569,132.702325,3607_1,,0,,,,
3608_1,,松前病院前,,33.791170,132.701391,3608_1,,0,,,,
3609_1,,東レ前,,33.793558,132.701311,3609_1,,0,,,,
3610_1,,塩屋,,33.800632,132.701509,3610_1,,0,,,,
3611_1,,旧若葉保育所前,,33.800739,132.711974,3611_1,,0,,,,
3612_1,,北川原,,33.802874,132.714100,3612_1,,0,,,,
3612_2,,北川原,,33.802720,132.714105,3612_2,,0,,,,
3613_1,,しのざき医院前,,33.803527,132.716490,3613_1,,0,,,,
3614_1,,岡田小学校前,,33.804175,132.721369,3614_1,,0,,,,
3614_2,,岡田小学校前,,33.804067,132.721425,3614_2,,0,,,,
3615_1,,升田歯科前,,33.801653,132.724007,3615_1,,0,,,,
3616_1,,岡田駅前,,33.799130,132.724005,3616_1,,0,,,,
3617_1,,長尾谷橋,,33.785956,132.704307,3617_1,,0,,,,
3618_1,,塩屋南,,33.799430,132.700898,3618_1,,0,,,,
3619_1,,木口内科前,,33.803940,132.724078,3619_1,,0,,,,
3626_1,,役場前,,33.787124,132.711262,3626_1,,0,,,,
3700_1,,すみれ野団地前,,33.872891,132.719865,3700_1,,0,,,,
3700_2,,すみれ野団地前,,33.873558,132.719873,3700_2,,0,,,,
3701_1,,会津町,,33.861990,132.723535,3701_1,,0,,,,
3702_1,,ＪＲ三津浜駅前,,33.861342,132.728082,3702_1,,0,,,,
3703_1,,三津東,,33.858202,132.727600,3703_1,,0,,,,
3704_1,,古三津,,33.854223,132.726938,3704_1,,0,,,,
3705_1,,西郵便局前,,33.855806,132.719085,3705_1,,0,,,,
3706_1,,横田沖台橋,,33.778966,132.729396,3706_1,,0,,,,
3707_1,,大溝,,33.778709,132.718713,3707_1,,0,,,,
3708_1,,宗通寺前,,33.778596,132.712618,3708_1,,0,,,,
5004_1,,土橋,,33.832772,132.756204,5004_1,,0,,,,
5004_2,,土橋,,33.833200,132.756370,5004_2,,0,,,,
5004_3,,土橋,,33.834974,132.756732,5004_3,,0,,,,
5006_1,,土居田口,,33.826530,132.747414,5006_1,,0,,,,
5006_2,,土居田口,,33.826436,132.747142,5006_2,,0,,,,
5007_1,,土居田,,33.824199,132.744084,5007_1,,0,,,,
5007_2,,土居田,,33.824211,132.743998,5007_2,,0,,,,
5008_1,,国土交通省前,,33.821468,132.740104,5008_1,,0,,,,
5008_2,,国土交通省前,,33.821587,132.740146,5008_2,,0,,,,
5009_1,,針田,,33.820239,132.738352,5009_1,,0,,,,
5009_2,,針田,,33.820349,132.738373,5009_2,,0,,,,
5010_1,,余戸,,33.816089,132.733629,5010_1,,0,,,,
5010_2,,余戸,,33.816429,132.733540,5010_2,,0,,,,
5010_21,,余戸,,33.816349,132.733528,5010_21,,0,,,,
5011_1,,井手の上,,33.815586,132.727803,5011_1,,0,,,,
5012_1,,柳井田,,33.815524,132.722821,5012_1,,0,,,,
5013_1,,八反地,,33.815317,132.717003,5013_1,,0,,,,
5014_1,,東垣生,,33.814574,132.712164,5014_1,,0,,,,
5015_1,,吉田口,,33.814566,132.706578,5015_1,,0,,,,
5016_1,,三島神社前（今出）,,33.814526,132.704025,5016_1,,0,,,,
5017_1,,今出南,,33.811455,132.702028,5017_1,,0,,,,
5018_1,,今出港口,,33.809958,132.700626,5018_1,,0,,,,
5019_1,,木材団地口,,33.809426,132.697850,5019_1,,0,,,,
5020_1,,今出港,,33.809700,132.696187,5020_1,,0,,,,
5021_1,,三段地川橋,,33.812592,132.707989,5021_1,,0,,,,
5022_1,,垣生中学校前,,33.810570,132.705233,5022_1,,0,,,,
5023_1,,パルティ・フジ垣生,,33.808674,132.702167,5023_1,,0,,,,
5024_1,,大新田,,33.808917,132.701227,5024_1,,0,,,,
5107_1,,和泉北,,33.821060,132.754918,5107_1,,0,,,,
5107_2,,和泉北,,33.821159,132.754594,5107_2,,0,,,,
5108_1,,保免,,33.816427,132.745189,5108_1,,0,,,,
5108_2,,保免,,33.816624,132.745164,5108_2,,0,,,,
5109_1,,余土中学校前,,33.814077,132.740872,5109_1,,0,,,,
5109_2,,余土中学校前,,33.813551,132.740715,5109_2,,0,,,,
5110_1,,坊っちゃんスタジアム,,33.809771,132.743320,5110_1,,0,,,,
5111_1,,マドンナスタジアム,,33.812589,132.748172,5111_1,,0,,,,
5206_1,,竹原中組,,33.831979,132.752503,5206_1,,0,,,,
5206_2,,竹原中組,,33.832594,132.752323,5206_2,,0,,,,
5207_1,,竹原町南,,33.829633,132.751904,5207_1,,0,,,,
5207_2,,竹原町南,,33.829547,132.751557,5207_2,,0,,,,
5208_1,,空港通り一丁目,,33.828643,132.744895,5208_1,,0,,,,
5208_2,,空港通り一丁目,,33.828533,132.744738,5208_2,,0,,,,
5209_1,,空港通り三丁目,,33.828467,132.738397,5209_1,,0,,,,
5209_2,,空港通り三丁目,,33.828354,132.738455,5209_2,,0,,,,
5210_1,,松山斎院営業所口,,33.828411,132.734379,5210_1,,0,,,,
5210_2,,松山斎院営業所口,,33.828307,132.734535,5210_2,,0,,,,
5211_1,,富久口,,33.828403,132.726907,5211_1,,0,,,,
5211_2,,富久口,,33.828298,132.727734,5211_2,,0,,,,
5212_1,,久保田,,33.828295,132.721868,5212_1,,0,,,,
5212_2,,久保田,,33.828171,132.721228,5212_2,,0,,,,
5213_1,,南吉田東,,33.828198,132.715648,5213_1,,0,,,,
5213_2,,南吉田東,,33.828090,132.715316,5213_2,,0,,,,
5214_1,,南吉田口,,33.828325,132.709242,5214_1,,0,,,,
5214_2,,南吉田口,,33.828229,132.709247,5214_2,,0,,,,
5215_1,,松山空港,,33.829466,132.704148,5215_1,,0,,,,
5215_2,,松山空港,,33.829531,132.704059,5215_2,,0,,,,
5216_1,,東雲学園前,,33.842440,132.770411,5216_1,,0,,,,
5217_1,,ロープウエイ前,,33.844676,132.772123,5217_1,,0,,,,
5218_2,,喜与町,,33.842488,132.772468,5218_2,,0,,,,
5219_1,,西一万,,33.846104,132.772716,5219_1,,0,,,,
5219_2,,西一万,,33.846090,132.772839,5219_2,,0,,,,
5220_1,,日赤前,,33.847513,132.773510,5220_1,,0,,,,
5220_2,,日赤前,,33.847302,132.773550,5220_2,,0,,,,
5221_1,,上一万駅前,,33.847483,132.774830,5221_1,,0,,,,
5221_2,,上一万駅前,,33.847277,132.774768,5221_2,,0,,,,
5221_3,,上一万駅前,,33.846230,132.775288,5221_3,,0,,,,
5221_4,,上一万駅前,,33.846269,132.775558,5221_4,,0,,,,
5222_1,,南町県民文化会館前,,33.847555,132.778876,5222_1,,0,,,,
5222_2,,南町県民文化会館前,,33.847318,132.779348,5222_2,,0,,,,
5223_1,,道後公園,,33.847683,132.783498,5223_1,,0,,,,
5223_2,,道後公園,,33.847891,132.784768,5223_2,,0,,,,
5231_1,,公民館前（石手）,,33.846950,132.797973,5231_1,,0,,,,
5231_2,,公民館前（石手）,,33.846993,132.798413,5231_2,,0,,,,
5232_1,,上石手,,33.848407,132.799326,5232_1,,0,,,,
5232_2,,上石手,,33.848505,132.799483,5232_2,,0,,,,
5233_1,,岩堰,,33.849994,132.802410,5233_1,,0,,,,
5233_2,,岩堰,,33.849640,132.802301,5233_2,,0,,,,
5234_1,,溝辺,,33.850553,132.806762,5234_1,,0,,,,
5234_2,,溝辺,,33.850190,132.805640,5234_2,,0,,,,
5235_1,,高野,,33.854671,132.809963,5235_1,,0,,,,
5235_2,,高野,,33.854698,132.810137,5235_2,,0,,,,
5236_1,,上高野,,33.857576,132.812307,5236_1,,0,,,,
5236_2,,上高野,,33.857534,132.812454,5236_2,,0,,,,
5237_1,,湯山小学校前,,33.859977,132.814201,5237_1,,0,,,,
5237_2,,湯山小学校前,,33.859731,132.814082,5237_2,,0,,,,
5238_1,,食場,,33.861886,132.816708,5238_1,,0,,,,
5238_2,,食場,,33.861354,132.816321,5238_2,,0,,,,
5239_1,,末,,33.863118,132.818764,5239_1,,0,,,,
5240_1,,湯山発電所前,,33.863672,132.821431,5240_1,,0,,,,
5241_1,,湯之元,,33.865109,132.823271,5241_1,,0,,,,
5242_1,,奥道後,,33.866723,132.826182,5242_1,,0,,,,
5242_2,,奥道後,,33.865997,132.825313,5242_2,,0,,,,
5243_1,,湧ヶ淵,,33.869597,132.828431,5243_1,,0,,,,
5244_1,,湯の山ニュータウン,,33.868743,132.817203,5244_1,,0,,,,
5245_1,,湯の山集会所,,33.869654,132.814354,5245_1,,0,,,,
5246_1,,湯の山コミュニティホール前,,33.871563,132.818324,5246_1,,0,,,,
5246_2,,湯の山コミュニティホール前,,33.871174,132.817214,5246_2,,0,,,,
5247_1,,湯の山東,,33.873158,132.822424,5247_1,,0,,,,
5247_2,,湯の山東,,33.873132,132.822369,5247_2,,0,,,,
5334_1,,石鎚神社前,,33.894654,133.158246,5334_1,,0,,,,
5334_2,,石鎚神社前,,33.894524,133.158229,5334_2,,0,,,,
5605_1,,竹原町,,33.834930,132.755173,5605_1,,0,,,,
5606_1,,西竹原,,33.833742,132.750469,5606_1,,0,,,,
5606_2,,西竹原,,33.833802,132.750427,5606_2,,0,,,,
5607_1,,西河原,,33.832615,132.747238,5607_1,,0,,,,
5608_1,,生石入口,,33.832217,132.744607,5608_1,,0,,,,
5609_1,,生石,,33.832262,132.740372,5609_1,,0,,,,
5609_2,,生石,,33.832311,132.740486,5609_2,,0,,,,
5610_1,,公民館前（南斎院）,,33.832367,132.737088,5610_1,,0,,,,
5611_1,,南斎院,,33.832245,132.734637,5611_1,,0,,,,
5612_1,,日吉神社口,,33.832004,132.731628,5612_1,,0,,,,
5612_2,,日吉神社口,,33.832061,132.732673,5612_2,,0,,,,
5613_1,,西側,,33.831933,132.728191,5613_1,,0,,,,
5613_2,,西側,,33.831852,132.727218,5613_2,,0,,,,
5614_1,,高岡天神前,,33.831817,132.723754,5614_1,,0,,,,
5615_1,,高岡,,33.831042,132.721348,5615_1,,0,,,,
5615_2,,高岡,,33.831082,132.721324,5615_2,,0,,,,
5616_1,,高岡公民館前,,33.831219,132.719205,5616_1,,0,,,,
5617_1,,生石小学校前,,33.830751,132.715458,5617_1,,0,,,,
5617_2,,生石小学校前,,33.830885,132.715574,5617_2,,0,,,,
5618_1,,高岡橋,,33.830085,132.713421,5618_1,,0,,,,
5619_1,,住宅前,,33.830124,132.712280,5619_1,,0,,,,
5620_1,,鯛崎,,33.830852,132.708698,5620_1,,0,,,,
5620_2,,鯛崎,,33.830533,132.708670,5620_2,,0,,,,
5621_1,,社宅前,,33.832714,132.709272,5621_1,,0,,,,
5621_2,,社宅前,,33.832863,132.709369,5621_2,,0,,,,
5622_1,,帝人前,,33.835928,132.709145,5622_1,,0,,,,
5622_2,,帝人前,,33.835426,132.709271,5622_2,,0,,,,
5623_1,,北吉田,,33.836878,132.709145,5623_1,,0,,,,
5623_2,,北吉田,,33.836846,132.709320,5623_2,,0,,,,
5624_1,,金比羅前（吉田）,,33.841017,132.708734,5624_1,,0,,,,
5624_2,,金比羅前（吉田）,,33.841097,132.708853,5624_2,,0,,,,
5625_1,,磯崎,,33.843931,132.708018,5625_1,,0,,,,
5625_2,,磯崎,,33.844399,132.708594,5625_2,,0,,,,
5626_1,,アイテムえひめ前,,33.850699,132.713234,5626_1,,0,,,,
5626_2,,アイテムえひめ前,,33.850866,132.713402,5626_2,,0,,,,
5627_1,,大可賀,,33.854569,132.712896,5627_1,,0,,,,
5627_2,,大可賀,,33.854267,132.713092,5627_2,,0,,,,
5628_1,,西署前,,33.858248,132.712579,5628_1,,0,,,,
5628_2,,西署前,,33.858124,132.712791,5628_2,,0,,,,
5629_1,,三津二丁目,,33.862112,132.712207,5629_1,,0,,,,
5630_1,,三津一丁目,,33.864459,132.711479,5630_1,,0,,,,
5630_2,,三津一丁目,,33.864469,132.711588,5630_2,,0,,,,
5631_1,,三津港,,33.865124,132.709595,5631_1,,0,,,,
6008_1,,北宮西町,,33.849508,132.752016,6008_1,,0,,,,
6008_2,,北宮西町,,33.849686,132.752278,6008_2,,0,,,,
6009_1,,病院前,,33.851237,132.749947,6009_1,,0,,,,
6009_2,,病院前,,33.851288,132.749366,6009_2,,0,,,,
6013_1,,山西,,33.852972,132.724115,6013_1,,0,,,,
6014_1,,三本柳済生会病院前,,33.852774,132.720869,6014_1,,0,,,,
6015_1,,松江橋,,33.858117,132.719205,6015_1,,0,,,,
6016_1,,三津厳島神社前,,33.859882,132.719344,6016_1,,0,,,,
6017_1,,三津駅前,,33.863926,132.719553,6017_1,,0,,,,
6017_2,,三津駅前,,33.863925,132.719555,6017_2,,0,,,,
6018_1,,辰巳町,,33.866670,132.718782,6018_1,,0,,,,
6018_2,,辰巳町,,33.866975,132.718646,6018_2,,0,,,,
6023_3,,高浜駅前,,33.883715,132.702057,6023_3,,0,,,,
6024_1,,松山観光港,,33.888528,132.704456,6024_1,,0,,,,
6024_2,,松山観光港,,33.888445,132.704282,6024_2,,0,,,,
6112_1,,衣山駅前,,33.852561,132.744346,6112_1,,0,,,,
6112_2,,衣山駅前,,33.852533,132.744500,6112_2,,0,,,,
6113_1,,久万の台,,33.857838,132.743373,6113_1,,0,,,,
6114_1,,松山西中等教育学校前,,33.861531,132.741750,6114_1,,0,,,,
6114_2,,松山西中等教育学校前,,33.862086,132.741706,6114_2,,0,,,,
6115_1,,西長戸南口,,33.866387,132.741318,6115_1,,0,,,,
6115_2,,西長戸南口,,33.866554,132.741431,6115_2,,0,,,,
6116_1,,西長戸,,33.868297,132.741324,6116_1,,0,,,,
6117_1,,久枝小学校前,,33.871665,132.741299,6117_1,,0,,,,
6118_1,,三光前,,33.874695,132.741235,6118_1,,0,,,,
6119_1,,保具,,33.877321,132.741209,6119_1,,0,,,,
6120_1,,安城寺,,33.879757,132.741343,6120_1,,0,,,,
6121_1,,高木,,33.883995,132.741278,6121_1,,0,,,,
6121_2,,高木,,33.884012,132.741449,6121_2,,0,,,,
6122_1,,仲村,,33.887380,132.739779,6122_1,,0,,,,
6122_2,,仲村,,33.887181,132.740010,6122_2,,0,,,,
6123_1,,和気駅前,,33.890009,132.739273,6123_1,,0,,,,
6124_1,,和気,,33.891055,132.739166,6124_1,,0,,,,
6125_1,,和気農協前,,33.888460,132.732293,6125_1,,0,,,,
6125_2,,和気農協前,,33.888495,132.732173,6125_2,,0,,,,
6126_1,,片廻,,33.885582,132.726985,6126_1,,0,,,,
6127_1,,一の門,,33.883766,132.722519,6127_1,,0,,,,
6128_1,,太山寺,,33.883955,132.720240,6128_1,,0,,,,
6129_1,,小山,,33.888195,132.726785,6129_1,,0,,,,
6130_1,,昭和橋,,33.892873,132.728178,6130_1,,0,,,,
6131_1,,勝岡住宅前,,33.896310,132.729393,6131_1,,0,,,,
6131_2,,勝岡住宅前,,33.896365,132.729521,6131_2,,0,,,,
6132_1,,勝岡神社前,,33.896937,132.728497,6132_1,,0,,,,
6132_2,,勝岡神社前,,33.897058,132.728555,6132_2,,0,,,,
6133_1,,勝岡,,33.898397,132.726450,6133_1,,0,,,,
6133_2,,勝岡,,33.898240,132.726876,6133_2,,0,,,,
6134_1,,勝岡東,,33.900859,132.725269,6134_1,,0,,,,
6135_1,,運転免許センター,,33.902518,132.724654,6135_1,,0,,,,
6605_1,,西堀端,,33.840646,132.758654,6605_1,,0,,,,
6605_2,,西堀端,,33.841362,132.758869,6605_2,,0,,,,
6605_3,,西堀端,,33.837907,132.758600,6605_3,,0,,,,
6606_1,,本町三,,33.845687,132.758662,6606_1,,0,,,,
6606_2,,本町三,,33.845336,132.758932,6606_2,,0,,,,
6607_1,,本町,,33.848465,132.758653,6607_1,,0,,,,
6607_2,,本町,,33.848250,132.758919,6607_2,,0,,,,
6608_1,,本町五,,33.850668,132.758651,6608_1,,0,,,,
6608_2,,本町五,,33.850677,132.758934,6608_2,,0,,,,
6609_1,,本町六,,33.854243,132.758788,6609_1,,0,,,,
6609_2,,本町六,,33.852965,132.758962,6609_2,,0,,,,
6610_1,,山越,,33.855633,132.758883,6610_1,,0,,,,
6610_2,,山越,,33.856062,132.759198,6610_2,,0,,,,
6611_1,,還熊八幡前,,33.859550,132.759037,6611_1,,0,,,,
6611_2,,還熊八幡前,,33.858890,132.759160,6611_2,,0,,,,
6612_1,,北山越,,33.862077,132.758998,6612_1,,0,,,,
6612_2,,北山越,,33.860973,132.759186,6612_2,,0,,,,
6613_1,,姫原,,33.864785,132.758943,6613_1,,0,,,,
6613_2,,姫原,,33.864994,132.759082,6613_2,,0,,,,
6614_1,,東長戸,,33.868662,132.756614,6614_1,,0,,,,
6614_2,,東長戸,,33.868977,132.756549,6614_2,,0,,,,
6615_1,,鴨川団地前,,33.874660,132.751990,6615_1,,0,,,,
6615_2,,鴨川団地前,,33.873310,132.752316,6615_2,,0,,,,
6616_1,,潮見保育園前,,33.877459,132.751912,6616_1,,0,,,,
6616_2,,潮見保育園前,,33.876578,132.752223,6616_2,,0,,,,
6617_1,,北山田,,33.882434,132.751798,6617_1,,0,,,,
6617_2,,北山田,,33.881402,132.752079,6617_2,,0,,,,
6618_1,,平田,,33.884615,132.751759,6618_1,,0,,,,
6618_2,,平田,,33.885169,132.752026,6618_2,,0,,,,
6619_1,,金比羅前（内宮）,,33.890533,132.749182,6619_1,,0,,,,
6619_2,,金比羅前（内宮）,,33.890089,132.749631,6619_2,,0,,,,
6620_1,,内宮,,33.895847,132.748711,6620_1,,0,,,,
6620_2,,内宮,,33.895077,132.748904,6620_2,,0,,,,
6621_1,,花見橋,,33.901799,132.747467,6621_1,,0,,,,
6621_2,,花見橋,,33.900875,132.747646,6621_2,,0,,,,
6622_1,,堀江,,33.905812,132.751147,6622_1,,0,,,,
6622_2,,堀江,,33.905931,132.751475,6622_2,,0,,,,
6623_1,,東栄,,33.909216,132.754400,6623_1,,0,,,,
6623_2,,東栄,,33.909354,132.754696,6623_2,,0,,,,
6624_1,,大谷口,,33.917551,132.757775,6624_1,,0,,,,
6625_1,,粟井坂,,33.924274,132.757873,6625_1,,0,,,,
6625_2,,粟井坂,,33.923645,132.757572,6625_2,,0,,,,
6626_1,,小川,,33.927921,132.760567,6626_1,,0,,,,
6626_2,,小川,,33.927347,132.760267,6626_2,,0,,,,
6627_1,,磯の川,,33.930288,132.762032,6627_1,,0,,,,
6627_2,,磯の川,,33.930504,132.762190,6627_2,,0,,,,
6628_1,,和田,,33.934519,132.763211,6628_1,,0,,,,
6628_2,,和田,,33.934094,132.763123,6628_2,,0,,,,
6629_1,,粟井橋,,33.937501,132.765479,6629_1,,0,,,,
6629_2,,粟井橋,,33.937194,132.765339,6629_2,,0,,,,
6630_1,,久保（粟井）,,33.940052,132.767520,6630_1,,0,,,,
6630_2,,久保（粟井）,,33.940240,132.767707,6630_2,,0,,,,
6631_1,,粟井駅前,,33.943019,132.768751,6631_1,,0,,,,
6631_2,,粟井駅前,,33.943387,132.768908,6631_2,,0,,,,
6632_1,,中須賀,,33.945741,132.768780,6632_1,,0,,,,
6632_2,,中須賀,,33.946318,132.768915,6632_2,,0,,,,
6633_1,,松の木,,33.950131,132.770666,6633_1,,0,,,,
6633_2,,松の木,,33.950115,132.770732,6633_2,,0,,,,
6634_1,,柳原,,33.953449,132.771818,6634_1,,0,,,,
6634_2,,柳原,,33.953499,132.771913,6634_2,,0,,,,
6635_1,,河野橋,,33.956322,132.772467,6635_1,,0,,,,
6635_2,,河野橋,,33.956274,132.772556,6635_2,,0,,,,
6636_1,,西の下,,33.959866,132.772483,6636_1,,0,,,,
6636_2,,西の下,,33.959483,132.772503,6636_2,,0,,,,
6637_1,,新開,,33.965781,132.772517,6637_1,,0,,,,
6637_2,,新開,,33.965886,132.772596,6637_2,,0,,,,
6638_1,,北条高校前,,33.969883,132.772789,6638_1,,0,,,,
6638_2,,北条高校前,,33.969334,132.772831,6638_2,,0,,,,
6639_1,,北条鹿島前,,33.972849,132.772991,6639_1,,0,,,,
6639_2,,北条鹿島前,,33.972308,132.773048,6639_2,,0,,,,
6640_1,,辻町,,33.974837,132.774139,6640_1,,0,,,,
6640_2,,辻町,,33.975263,132.774475,6640_2,,0,,,,
6641_1,,北条本町,,33.976816,132.774824,6641_1,,0,,,,
6641_2,,北条本町,,33.976697,132.774837,6641_2,,0,,,,
6642_1,,北本町,,33.978217,132.775628,6642_1,,0,,,,
6643_1,,北条,,33.980008,132.776665,6643_1,,0,,,,
6643_2,,北条,,33.979717,132.776682,6643_2,,0,,,,
6647_1,,ほりえうみてらす海の駅,,33.907204,132.749859,6647_1,,0,,,,
6755_2,,今治駅前,,34.064550,132.994373,6755_2,,0,,,,
6757_3,,今治桟橋,,34.069975,133.004910,6757_3,,0,,,,
7007_1,,東署前,,33.844711,132.775182,7007_1,,0,,,,
7007_2,,東署前,,33.844779,132.775477,7007_2,,0,,,,
7013_1,,丸山橋,,33.861231,132.775897,7013_1,,0,,,,
7013_2,,丸山橋,,33.861408,132.775840,7013_2,,0,,,,
7014_1,,松山ベテル病院前,,33.863873,132.773631,7014_1,,0,,,,
7014_2,,松山ベテル病院前,,33.863468,132.773950,7014_2,,0,,,,
7015_1,,山田,,33.865070,132.773398,7015_1,,0,,,,
7016_1,,道後聖墓苑前,,33.869830,132.778270,7016_1,,0,,,,
7016_2,,道後聖墓苑前,,33.870016,132.778741,7016_2,,0,,,,
7017_1,,妙清寺前,,33.872021,132.780400,7017_1,,0,,,,
7017_2,,妙清寺前,,33.871689,132.780305,7017_2,,0,,,,
7018_1,,道後白水台,,33.873537,132.781867,7018_1,,0,,,,
7018_2,,道後白水台,,33.873337,132.781936,7018_2,,0,,,,
7019_1,,白水峠,,33.873248,132.786056,7019_1,,0,,,,
7020_1,,瀬戸風ハイツ前,,33.873964,132.787988,7020_1,,0,,,,
7021_1,,松組,,33.874262,132.793119,7021_1,,0,,,,
7022_1,,伊台,,33.877118,132.798814,7022_1,,0,,,,
7033_1,,道後町二,,33.848791,132.780554,7033_1,,0,,,,
7033_2,,道後町二,,33.848776,132.780703,7033_2,,0,,,,
7034_1,,祝谷二丁目,,33.854761,132.780500,7034_1,,0,,,,
7034_2,,祝谷二丁目,,33.855248,132.780567,7034_2,,0,,,,
7035_1,,祝谷五丁目,,33.856908,132.780004,7035_1,,0,,,,
7035_2,,祝谷五丁目,,33.857077,132.780030,7035_2,,0,,,,
7036_1,,祝谷橋,,33.858249,132.777949,7036_1,,0,,,,
7036_2,,祝谷橋,,33.858334,132.778054,7036_2,,0,,,,
7042_1,,道後平入口,,33.873647,132.784692,7042_1,,0,,,,
7042_2,,道後平入口,,33.873524,132.784779,7042_2,,0,,,,
7109_1,,湯渡,,33.840631,132.785979,7109_1,,0,,,,
7109_2,,湯渡,,33.840496,132.785924,7109_2,,0,,,,
7110_1,,高柳,,33.842559,132.790152,7110_1,,0,,,,
7110_2,,高柳,,33.842606,132.790402,7110_2,,0,,,,
7111_1,,石手四丁目,,33.844444,132.794249,7111_1,,0,,,,
7121_1,,末滝見橋,,33.863334,132.817344,7121_1,,0,,,,
7122_1,,土居・湯の山ニュータウン口,,33.867120,132.812299,7122_1,,0,,,,
7122_2,,土居・湯の山ニュータウン口,,33.867109,132.812443,7122_2,,0,,,,
7123_1,,梅組,,33.870446,132.808059,7123_1,,0,,,,
7124_1,,頭尾,,33.872997,132.806401,7124_1,,0,,,,
7125_1,,桜組,,33.874098,132.804238,7125_1,,0,,,,
7446_1,,根引峠,,33.794803,132.960822,7446_1,,0,,,,
7447_1,,二子松,,33.801920,132.968608,7447_1,,0,,,,
7447_2,,二子松,,33.802615,132.969317,7447_2,,0,,,,
7448_1,,桜三里霊園前,,33.806846,132.972392,7448_1,,0,,,,
7448_2,,桜三里霊園前,,33.806542,132.972271,7448_2,,0,,,,
7449_1,,土谷橋,,33.810123,132.975907,7449_1,,0,,,,
7449_2,,土谷橋,,33.810361,132.976421,7449_2,,0,,,,
7450_1,,落出,,33.813529,132.979618,7450_1,,0,,,,
7450_2,,落出,,33.813269,132.979764,7450_2,,0,,,,
7450_3,,落出,,33.813537,132.980501,7450_3,,0,,,,
7451_1,,弥助成,,33.804763,132.993289,7451_1,,0,,,,
7452_1,,郷の下,,33.801877,132.995169,7452_1,,0,,,,
7453_1,,滑川生活センター前,,33.799056,132.995926,7453_1,,0,,,,
7454_1,,下仲屋,,33.797386,132.998734,7454_1,,0,,,,
7455_1,,上仲屋,,33.795129,132.998587,7455_1,,0,,,,
7456_1,,伊之曽口,,33.789791,132.999125,7456_1,,0,,,,
7457_1,,桜口,,33.786840,133.001176,7457_1,,0,,,,
7458_1,,滑川,,33.784670,133.002982,7458_1,,0,,,,
7459_1,,第二発電所前,,33.781893,133.003519,7459_1,,0,,,,
7460_1,,海上,,33.777249,133.004594,7460_1,,0,,,,
7541_1,,滝の下,,33.794768,132.925248,7541_1,,0,,,,
7541_2,,滝の下,,33.794718,132.925063,7541_2,,0,,,,
7542_1,,鎌倉堂,,33.793922,132.931029,7542_1,,0,,,,
7542_2,,鎌倉堂,,33.793859,132.930860,7542_2,,0,,,,
7543_1,,則之内,,33.793360,132.937276,7543_1,,0,,,,
7543_2,,則之内,,33.793256,132.936866,7543_2,,0,,,,
7544_1,,則之内中組,,33.793632,132.941027,7544_1,,0,,,,
7544_2,,則之内中組,,33.793350,132.940836,7544_2,,0,,,,
7545_1,,宮の谷,,33.795931,132.950397,7545_1,,0,,,,
7545_2,,宮の谷,,33.795757,132.950496,7545_2,,0,,,,
7546_1,,徳吉,,33.794521,132.951570,7546_1,,0,,,,
7547_1,,学校前,,33.792741,132.953816,7547_1,,0,,,,
7548_1,,下音田,,33.789725,132.957306,7548_1,,0,,,,
7549_1,,河之内,,33.786470,132.959138,7549_1,,0,,,,
7550_1,,金比羅前（河之内）,,33.784843,132.959285,7550_1,,0,,,,
7551_1,,清水橋,,33.781501,132.958211,7551_1,,0,,,,
7552_1,,法蔵寺,,33.781718,132.956014,7552_1,,0,,,,
7553_1,,狩場,,33.779375,132.957185,7553_1,,0,,,,
7554_1,,黒岩,,33.775534,132.960017,7554_1,,0,,,,
7555_1,,中問屋,,33.771845,132.965437,7555_1,,0,,,,
7556_1,,白猪滝口,,33.768200,132.968074,7556_1,,0,,,,
7608_1,,小坂町,,33.835458,132.780998,7608_1,,0,,,,
7608_2,,小坂町,,33.835641,132.780771,7608_2,,0,,,,
7609_1,,南小坂町,,33.833854,132.782050,7609_1,,0,,,,
7609_2,,南小坂町,,33.833597,132.782113,7609_2,,0,,,,
7610_1,,枝松,,33.830800,132.784777,7610_1,,0,,,,
7610_2,,枝松,,33.829898,132.785599,7610_2,,0,,,,
7611_1,,松末住宅前,,33.827254,132.788574,7611_1,,0,,,,
7611_2,,松末住宅前,,33.828187,132.787461,7611_2,,0,,,,
7612_1,,松末橋,,33.825634,132.790247,7612_1,,0,,,,
7612_2,,松末橋,,33.825579,132.790208,7612_2,,0,,,,
7613_1,,スポーツセンター前,,33.823909,132.792072,7613_1,,0,,,,
7613_2,,スポーツセンター前,,33.823970,132.791793,7613_2,,0,,,,
7614_1,,福音寺,,33.820762,132.795755,7614_1,,0,,,,
7614_2,,福音寺,,33.820796,132.795550,7614_2,,0,,,,
7615_1,,北久米,,33.819620,132.798070,7615_1,,0,,,,
7615_2,,北久米,,33.819594,132.797935,7615_2,,0,,,,
7617_1,,鷹の子温泉前,,33.814725,132.809200,7617_1,,0,,,,
7617_2,,鷹の子温泉前,,33.814861,132.808793,7617_2,,0,,,,
7618_1,,鷹の子,,33.813488,132.813118,7618_1,,0,,,,
7618_2,,鷹の子,,33.813538,132.812702,7618_2,,0,,,,
7619_1,,上新畑,,33.811934,132.818864,7619_1,,0,,,,
7619_2,,上新畑,,33.811981,132.818425,7619_2,,0,,,,
7620_1,,刈屋,,33.809472,132.827899,7620_1,,0,,,,
7620_2,,刈屋,,33.809784,132.826483,7620_2,,0,,,,
7621_1,,平井,,33.808748,132.830620,7621_1,,0,,,,
7621_2,,平井,,33.808659,132.830658,7621_2,,0,,,,
7622_1,,水泥,,33.806268,132.834387,7622_1,,0,,,,
7622_2,,水泥,,33.806076,132.834982,7622_2,,0,,,,
7623_1,,小野支所前,,33.805575,132.839094,7623_1,,0,,,,
7623_2,,小野支所前,,33.805497,132.838776,7623_2,,0,,,,
7624_1,,北梅本,,33.805475,132.843959,7624_1,,0,,,,
7624_2,,北梅本,,33.805377,132.843770,7624_2,,0,,,,
7625_1,,自衛隊前,,33.804523,132.849269,7625_1,,0,,,,
7625_2,,自衛隊前,,33.804458,132.848715,7625_2,,0,,,,
7626_1,,ハリマ塚,,33.802956,132.857673,7626_1,,0,,,,
7626_2,,ハリマ塚,,33.802852,132.857715,7626_2,,0,,,,
7627_1,,西の岡,,33.803444,132.865910,7627_1,,0,,,,
7627_2,,西の岡,,33.803572,132.866646,7627_2,,0,,,,
7628_1,,志津川,,33.805609,132.874396,7628_1,,0,,,,
7628_2,,志津川,,33.805600,132.875005,7628_2,,0,,,,
7629_1,,北吉井小学校前,,33.804869,132.878744,7629_1,,0,,,,
7629_2,,北吉井小学校前,,33.804867,132.878865,7629_2,,0,,,,
7629_3,,北吉井小学校前,,33.805090,132.880093,7629_3,,0,,,,
7629_4,,北吉井小学校前,,33.804987,132.880273,7629_4,,0,,,,
7630_1,,愛大病院前,,33.803743,132.879534,7630_1,,0,,,,
7630_2,,愛大病院前,,33.803743,132.879534,7630_2,,0,,,,
7631_1,,横河原,,33.804561,132.885123,7631_1,,0,,,,
7631_2,,横河原,,33.804513,132.885110,7631_2,,0,,,,
7631_3,,横河原,,33.803671,132.885089,7631_3,,0,,,,
7632_1,,茶堂,,33.801667,132.893650,7632_1,,0,,,,
7632_2,,茶堂,,33.802185,132.891775,7632_2,,0,,,,
7633_1,,川上農協前,,33.800494,132.898447,7633_1,,0,,,,
7633_2,,川上農協前,,33.800279,132.898648,7633_2,,0,,,,
7634_1,,川上学校前,,33.799429,132.904163,7634_1,,0,,,,
7634_2,,川上学校前,,33.799546,132.903149,7634_2,,0,,,,
7635_1,,川上下の町,,33.799199,132.908030,7635_1,,0,,,,
7635_2,,川上下の町,,33.799036,132.908844,7635_2,,0,,,,
7636_1,,川内,,33.798469,132.912714,7636_1,,0,,,,
7636_2,,川内,,33.798474,132.912193,7636_2,,0,,,,
7637_1,,川内支所前,,33.797749,132.914161,7637_1,,0,,,,
7637_2,,川内支所前,,33.797583,132.914200,7637_2,,0,,,,
7638_1,,西谷口,,33.795280,132.918591,7638_1,,0,,,,
7638_2,,西谷口,,33.795366,132.917748,7638_2,,0,,,,
7638_3,,西谷口,,33.794126,132.918753,7638_3,,0,,,,
7639_1,,天神大橋,,33.794861,132.920645,7639_1,,0,,,,
7639_2,,天神大橋,,33.794818,132.919607,7639_2,,0,,,,
7639_3,,天神大橋,,33.795483,132.920254,7639_3,,0,,,,
7640_1,,天神集会所,,33.797019,132.919530,7640_1,,0,,,,
7640_2,,天神集会所,,33.797438,132.919486,7640_2,,0,,,,
7641_1,,川内公園,,33.800748,132.918102,7641_1,,0,,,,
7641_2,,川内公園,,33.800758,132.918190,7641_2,,0,,,,
7641_3,,川内公園,,33.800584,132.918630,7641_3,,0,,,,
7642_1,,川内グリーンタウン口,,33.801931,132.921107,7642_1,,0,,,,
7644_1,,滝見橋,,33.824887,132.986319,7644_1,,0,,,,
7644_2,,滝見橋,,33.825265,132.987577,7644_2,,0,,,,
7651_1,,湯谷口,,33.856805,133.018439,7651_1,,0,,,,
7651_2,,湯谷口,,33.856682,133.018504,7651_2,,0,,,,
7653_1,,さくらの湯,,33.802744,132.914920,7653_1,,0,,,,
7660_1,,川内グリーンタウン集会所,,33.804055,132.923493,7660_1,,0,,,,
7661_1,,川内グリーンタウン下,,33.805214,132.924076,7661_1,,0,,,,
7662_1,,川内グリーンタウン中,,33.806251,132.924597,7662_1,,0,,,,
7663_1,,川内グリーンタウン上,,33.807317,132.925204,7663_1,,0,,,,
7800_1,,横河原駅前,,33.803284,132.884260,7800_1,,0,,,,
7842_1,,三軒屋橋,,33.797233,132.928262,7842_1,,0,,,,
7843_1,,三軒屋下,,33.800134,132.930887,7843_1,,0,,,,
7844_1,,三軒屋上,,33.803865,132.934950,7844_1,,0,,,,
7845_1,,音田口,,33.805911,132.939761,7845_1,,0,,,,
7846_1,,中坪,,33.808290,132.942552,7846_1,,0,,,,
7847_1,,松瀬川公民館前,,33.811182,132.948443,7847_1,,0,,,,
7848_1,,新端,,33.821623,132.951959,7848_1,,0,,,,
7849_1,,坂口,,33.826754,132.951211,7849_1,,0,,,,
7850_1,,松瀬川,,33.828601,132.952945,7850_1,,0,,,,
801_1,,松山市駅,,33.835959,132.763154,801_1,,0,,,,1
801_11,,松山市駅,,33.836086,132.762910,801_11,,0,,,,
801_2,,松山市駅,,33.835950,132.763387,801_2,,0,,,,2
801_20,,松山市駅,,33.835730,132.763810,801_20,,0,,,,20
801_21,,松山市駅,,33.835600,132.763800,801_21,,0,,,,21
801_22,,松山市駅,,33.836201,132.762160,801_22,,0,,,,
801_3,,松山市駅,,33.836226,132.763046,801_3,,0,,,,3
801_4,,松山市駅,,33.835959,132.762973,801_4,,0,,,,4
801_5,,松山市駅,,33.836248,132.763200,801_5,,0,,,,5
801_6,,松山市駅,,33.836245,132.763685,801_6,,0,,,,6
801_7,,松山市駅,,33.836252,132.763452,801_7,,0,,,,7
801_8,,松山市駅,,33.836260,132.763459,801_8,,0,,,,8
801_9,,松山市駅,,33.836038,132.762757,801_9,,0,,,,
802_1,,千舟町五,,33.837456,132.764588,802_1,,0,,,,
802_2,,千舟町五,,33.837560,132.764740,802_2,,0,,,,
802_3,,千舟町五,,33.836818,132.765261,802_3,,0,,,,
802_4,,千舟町五,,33.836709,132.765100,802_4,,0,,,,
803_1,,千舟町四,,33.836765,132.767330,803_1,,0,,,,
803_2,,千舟町四,,33.836629,132.767179,803_2,,0,,,,
804_1,,大街道口,,33.836710,132.769217,804_1,,0,,,,
804_2,,大街道口,,33.836562,132.769261,804_2,,0,,,,
805_1,,千舟町二,,33.836630,132.771762,805_1,,0,,,,
805_2,,千舟町二,,33.836494,132.772274,805_2,,0,,,,
8052_1,,大頭,,33.881742,133.076765,8052_1,,0,,,,
8052_2,,大頭,,33.881768,133.077080,8052_2,,0,,,,
8053_1,,小松総合支所前,,33.897228,133.111451,8053_1,,0,,,,
8054_1,,氷見,,33.895477,133.129866,8054_1,,0,,,,
8054_2,,氷見,,33.895364,133.129668,8054_2,,0,,,,
8056_1,,西条登道,,33.912115,133.182936,8056_1,,0,,,,
8056_2,,西条登道,,33.912026,133.182997,8056_2,,0,,,,
8057_1,,西条駅前,,33.912777,133.187450,8057_1,,0,,,,
8057_2,,西条駅前,,33.912744,133.187324,8057_2,,0,,,,
8058_1,,横黒,,33.920715,133.191750,8058_1,,0,,,,
8058_2,,横黒,,33.920716,133.191858,8058_2,,0,,,,
8059_1,,西条済生会病院前,,33.929599,133.190891,8059_1,,0,,,,
8059_2,,西条済生会病院前,,33.929327,133.191025,8059_2,,0,,,,
806_1,,永木町,,33.837112,132.776118,806_1,,0,,,,
806_2,,永木町,,33.836920,132.776331,806_2,,0,,,,
8060_1,,新居浜営業所,,33.954086,133.261697,8060_1,,0,,,,
8060_2,,新居浜営業所,,33.953769,133.261130,8060_2,,0,,,,
8064_1,,市役所前（新居浜）,,33.959460,133.285265,8064_1,,0,,,,
8064_2,,市役所前（新居浜）,,33.960399,133.284647,8064_2,,0,,,,
8065_1,,新居浜駅前,,33.948338,133.294349,8065_1,,0,,,,
8068_1,,リーガホテル前,,33.957772,133.268192,8068_1,,0,,,,
8068_2,,リーガホテル前,,33.957605,133.268103,8068_2,,0,,,,
807_1,,新立,,33.838165,132.778216,807_1,,0,,,,
807_2,,新立,,33.838045,132.778434,807_2,,0,,,,
807_3,,新立,,33.838985,132.779160,807_3,,0,,,,
807_4,,新立,,33.838883,132.779055,807_4,,0,,,,
8071_1,,牛渕団地口,,33.794961,132.845527,8071_1,,0,,,,
8071_2,,牛渕団地口,,33.794839,132.845769,8071_2,,0,,,,
8072_1,,フジグラン重信ＳＣ前,,33.795307,132.832848,8072_1,,0,,,,
8072_2,,フジグラン重信ＳＣ前,,33.795509,132.832337,8072_2,,0,,,,
8073_1,,新久米,,33.808879,132.807264,8073_1,,0,,,,
8073_2,,新久米,,33.808672,132.805316,8073_2,,0,,,,
808_1,,日の出町,,33.836603,132.780905,808_1,,0,,,,
809_1,,日の出上町,,33.837512,132.782893,809_1,,0,,,,
810_1,,桑原農協前,,33.838653,132.785650,810_1,,0,,,,
810_2,,桑原農協前,,33.838589,132.785597,810_2,,0,,,,
810_3,,桑原農協前,,33.839088,132.786218,810_3,,0,,,,
810_4,,桑原農協前,,33.838984,132.786019,810_4,,0,,,,
811_1,,樽味,,33.839718,132.788369,811_1,,0,,,,
811_2,,樽味,,33.839625,132.788206,811_2,,0,,,,
812_1,,愛大農学部前,,33.839810,132.792320,812_1,,0,,,,
812_2,,愛大農学部前,,33.839754,132.792036,812_2,,0,,,,
813_1,,正円寺,,33.839875,132.796419,813_1,,0,,,,
813_2,,正円寺,,33.839854,132.796536,813_2,,0,,,,
814_1,,東野,,33.841426,132.797646,814_1,,0,,,,
814_2,,東野,,33.841403,132.797865,814_2,,0,,,,
8140_1,,川内保免,,33.789084,132.919555,8140_1,,0,,,,
8141_1,,和田丸,,33.785724,132.920049,8141_1,,0,,,,
8142_1,,枇杷坂,,33.779030,132.918006,8142_1,,0,,,,
8143_1,,西谷学校前,,33.772125,132.916841,8143_1,,0,,,,
8144_1,,久尾口,,33.769152,132.915897,8144_1,,0,,,,
8145_1,,大根木,,33.765144,132.915780,8145_1,,0,,,,
8146_1,,井内,,33.761201,132.919195,8146_1,,0,,,,
8147_1,,中野口,,33.758798,132.920761,8147_1,,0,,,,
8148_1,,川東口,,33.756590,132.922841,8148_1,,0,,,,
8149_1,,井内北間,,33.755089,132.927150,8149_1,,0,,,,
815_1,,東野一丁目,,33.844367,132.797341,815_1,,0,,,,
815_2,,東野一丁目,,33.844301,132.797518,815_2,,0,,,,
816_1,,石手,,33.845298,132.797154,816_1,,0,,,,
816_2,,石手,,33.845380,132.797246,816_2,,0,,,,
816_3,,石手,,33.845348,132.796672,816_3,,0,,,,
816_4,,石手,,33.845183,132.796407,816_4,,0,,,,
817_1,,石手寺,,33.846662,132.796271,817_1,,0,,,,
817_2,,石手寺,,33.846762,132.796564,817_2,,0,,,,
818_1,,下石手,,33.847206,132.793186,818_1,,0,,,,
818_2,,下石手,,33.847367,132.792588,818_2,,0,,,,
819_1,,道後姫塚,,33.847774,132.790424,819_1,,0,,,,
820_1,,義安寺前,,33.848598,132.789556,820_1,,0,,,,
821_1,,子規記念博物館前,,33.849805,132.787505,821_1,,0,,,,
821_2,,子規記念博物館前,,33.849605,132.785610,821_2,,0,,,,
822_1,,道後温泉駅前,,33.850595,132.784960,822_1,,0,,,,
822_2,,道後温泉駅前,,33.850306,132.785215,822_2,,0,,,,
823_1,,南堀端,,33.839235,132.760608,823_1,,0,,,,
823_2,,南堀端,,33.839460,132.760619,823_2,,0,,,,
824_1,,愛媛新聞社前,,33.839983,132.757819,824_1,,0,,,,
824_2,,愛媛新聞社前,,33.840192,132.757711,824_2,,0,,,,
825_1,,大手町,,33.840015,132.755532,825_1,,0,,,,
825_2,,大手町,,33.840257,132.754971,825_2,,0,,,,
826_1,,ＪＲ松山駅前,,33.840438,132.752017,826_1,,0,,,,
826_10,,ＪＲ松山駅前,,33.840072,132.752075,826_10,,0,,,,
826_2,,ＪＲ松山駅前,,33.840351,132.751971,826_2,,0,,,,
826_3,,ＪＲ松山駅前,,33.840288,132.751980,826_3,,0,,,,
826_5,,ＪＲ松山駅前,,33.840111,132.751982,826_5,,0,,,,
826_6,,ＪＲ松山駅前,,33.840034,132.751994,826_6,,0,,,,
826_7,,ＪＲ松山駅前,,33.840567,132.751649,826_7,,0,,,,
9010_3,,道後緑台,,33.853321,132.780700,9010_3,,0,,,,
9010_4,,道後緑台,,33.853270,132.780840,9010_4,,0,,,,
9202_1,,県病院前,,33.831552,132.763872,9202_1,,0,,,,
9202_2,,県病院前,,33.831430,132.763718,9202_2,,0,,,,
9203_1,,室町二丁目,,33.829409,132.764185,9203_1,,0,,,,
9203_2,,室町二丁目,,33.829538,132.764058,9203_2,,0,,,,
9204_1,,拓川町,,33.825482,132.765334,9204_1,,0,,,,
9204_2,,拓川町,,33.825372,132.765215,9204_2,,0,,,,
9205_1,,朝生田町三丁目,,33.821748,132.766801,9205_1,,0,,,,
9206_1,,朝生田町一丁目,,33.821854,132.773104,9206_1,,0,,,,
9207_1,,天山町東,,33.823166,132.777776,9207_1,,0,,,,
9208_1,,小坂四丁目,,33.827317,132.782420,9208_1,,0,,,,
9209_1,,小坂三丁目,,33.830143,132.780331,9209_1,,0,,,,
9210_1,,松山商業前,,33.839235,132.775179,9210_1,,0,,,,
9211_1,,朝生田町四丁目,,33.822385,132.765480,9211_1,,0,,,,
9211_2,,朝生田町四丁目,,33.822408,132.765367,9211_2,,0,,,,
9212_1,,県立中央病院,,33.831863,132.765106,9212_1,,0,,,,
9429_1,,コムズ前,,33.838529,132.759554,9429_1,,0,,,,
9502_1,,久米駅東口,,33.814899,132.805799,9502_1,,0,,,,
9503_1,,久米支所前,,33.813649,132.805618,9503_1,,0,,,,
9504_1,,久米学校前,,33.810311,132.805975,9504_1,,0,,,,
9505_1,,北窪田,,33.807865,132.806521,9505_1,,0,,,,
9505_2,,北窪田,,33.807838,132.806472,9505_2,,0,,,,
9506_1,,来住団地前,,33.805873,132.807228,9506_1,,0,,,,
9506_2,,来住団地前,,33.805824,132.807164,9506_2,,0,,,,
9507_1,,南来住口,,33.804034,132.807254,9507_1,,0,,,,
9507_2,,南来住口,,33.803446,132.807211,9507_2,,0,,,,
9508_2,,南窪田口,,33.800679,132.807187,9508_2,,0,,,,
9510_1,,高井北,,33.798533,132.813246,9510_1,,0,,,,
9511_1,,高井局前,,33.796757,132.812181,9511_1,,0,,,,
9512_1,,波賀部神社口,,33.797910,132.809479,9512_1,,0,,,,
9513_1,,松山リハビリ病院前,,33.799668,132.807312,9513_1,,0,,,,
9514_1,,窪田小学校前,,33.801030,132.813550,9514_1,,0,,,,
9515_1,,テクノプラザ愛媛口,,33.803065,132.813732,9515_1,,0,,,,
9516_1,,久米窪田中央,,33.803559,132.812284,9516_1,,0,,,,
9517_1,,久米公務員宿舎前,,33.803684,132.809038,9517_1,,0,,,,
9518_1,,南土居,,33.798687,132.807092,9518_1,,0,,,,
9601_1,,梅本駅前,,33.801087,132.839212,9601_1,,0,,,,
9601_21,,梅本駅前,,33.801089,132.839211,9601_21,,0,,,,
9602_1,,四国がんセンター,,33.797561,132.840821,9602_1,,0,,,,
9603_1,,野田一丁目,,33.795614,132.839391,9603_1,,0,,,,
9603_2,,野田一丁目,,33.795716,132.839301,9603_2,,0,,,,
9604_1,,ダイキ重信店前,,33.794309,132.836277,9604_1,,0,,,,
9604_2,,ダイキ重信店前,,33.794327,132.836509,9604_2,,0,,,,
9604_3,,ダイキ重信店前,,33.794101,132.836720,9604_3,,0,,,,
9604_4,,ダイキ重信店前,,33.794306,132.836278,9604_4,,0,,,,
9605_1,,グランモール入口,,33.795845,132.834088,9605_1,,0,,,,
9605_2,,グランモール入口,,33.795608,132.834132,9605_2,,0,,,,
9606_1,,フジグラン重信ＳＣ,,33.795667,132.834676,9606_1,,0,,,,
9805_1,,博多バスターミナル,,33.591503,130.419819,9805_1,,0,,,,
9805_2,,博多バスターミナル,,33.591492,130.419758,9805_2,,0,,,,
99104_1,,松山インター口,,33.802405,132.782423,99104_1,,0,,,,
99104_2,,松山インター口,,33.802399,132.782394,99104_2,,0,,,,
99105_1,,川内インター,,33.796849,132.905032,99105_1,,0,,,,
99105_2,,川内インター,,33.796889,132.904999,99105_2,,0,,,,
99111_1,,松山室町営業所,,33.830372,132.766418,99111_1,,0,,,,
99202_1,,西大洲,,33.504006,132.524738,99202_1,,0,,,,
99211_1,,西宮北インター,,34.836474,135.234938,99211_1,,0,,,,
99213_1,,宝塚インター,,34.803811,135.367272,99213_1,,0,,,,
99214_1,,千里中央,,34.809637,135.494769,99214_1,,0,,,,
99215_1,,千里ニュータウン,,34.793351,135.496991,99215_1,,0,,,,
99216_1,,新大阪,,34.733961,135.499728,99216_1,,0,,,,
99217_1,,大阪（阪急三番街）,,34.705526,135.498116,99217_1,,0,,,,
99307_1,,鷲羽山北,,34.442315,133.808588,99307_1,,0,,,,
99308_1,,有城南,,34.568525,133.803613,99308_1,,0,,,,
99309_1,,岡山駅西口,,34.667081,133.917114,99309_1,,0,,,,
99312_1,,津高,,34.705703,133.901302,99312_1,,0,,,,
99406_1,,観音寺,,34.116374,133.687651,99406_1,,0,,,,
99406_2,,観音寺,,34.116222,133.687675,99406_2,,0,,,,
99407_1,,善通寺,,34.242550,133.785720,99407_1,,0,,,,
99407_2,,善通寺,,34.241899,133.785032,99407_2,,0,,,,
99408_1,,丸亀,,34.267358,133.821617,99408_1,,0,,,,
99408_2,,丸亀,,34.267966,133.822545,99408_2,,0,,,,
99410_1,,栗林公園前,,34.329765,134.046024,99410_1,,0,,,,
99410_2,,栗林公園前,,34.330159,134.046357,99410_2,,0,,,,
99411_1,,県庁通り,,34.340482,134.047623,99411_1,,0,,,,
99411_2,,県庁通り,,34.340253,134.047697,99411_2,,0,,,,
99412_1,,高松駅高速ＢＴ,,34.350279,134.046907,99412_1,,0,,,,
99412_2,,高松駅高速ＢＴ,,34.350203,134.046117,99412_2,,0,,,,
99415_1,,ゆめタウン高松,,34.316098,134.038467,99415_1,,0,,,,
99415_2,,ゆめタウン高松,,34.315599,134.038571,99415_2,,0,,,,
99417_1,,高松西インター北,,34.299278,133.996056,99417_1,,0,,,,
99417_2,,高松西インター北,,34.298167,133.996111,99417_2,,0,,,,
99506_1,,三好ＢＳ,,34.038242,133.894823,99506_1,,0,,,,
99507_1,,脇町ＢＳ,,34.076738,134.166910,99507_1,,0,,,,
99510_1,,徳島駅前,,34.073791,134.550639,99510_1,,0,,,,
99512_1,,鈴江,,34.097229,134.573381,99512_1,,0,,,,
99514_1,,土成ＢＳ,,34.119592,134.353478,99514_1,,0,,,,
99515_1,,徳島大学前,,34.078004,134.559126,99515_1,,0,,,,
99606_1,,三島川之江インター,,33.980992,133.576362,99606_1,,0,,,,
99606_2,,三島川之江インター,,33.980948,133.576411,99606_2,,0,,,,
99607_1,,一宮バスターミナル,,33.581653,133.566232,99607_1,,0,,,,
99607_2,,一宮バスターミナル,,33.581642,133.566176,99607_2,,0,,,,
99609_1,,はりまや橋,,33.559312,133.545878,99609_1,,0,,,,
99609_2,,はりまや橋,,33.559899,133.543157,99609_2,,0,,,,
99610_1,,高知駅バスターミナル,,33.567542,133.544416,99610_1,,0,,,,
99610_2,,高知駅バスターミナル,,33.566409,133.543547,99610_2,,0,,,,
99703_1,,瀬戸田ＰＡ,,34.259339,133.080321,99703_1,,0,,,,
99706_1,,因島大橋,,34.337066,133.159950,99706_1,,0,,,,
99707_1,,新尾道駅,,34.430025,133.190998,99707_1,,0,,,,
99712_1,,福山駅前,,34.488276,133.362935,99712_1,,0,,,,
99713_1,,向島ＢＳ,,34.382070,133.194857,99713_1,,0,,,,
99717_1,,来島海峡ＢＳ,,34.099046,132.978921,99717_1,,0,,,,
99718_1,,因島重井ＢＳ,,34.329319,133.154043,99718_1,,0,,,,
99719_1,,向東ＢＳ,,34.397249,133.208350,99719_1,,0,,,,
99722_1,,大島ＢＳ,,34.159301,133.067277,99722_1,,0,,,,
99723_1,,瀬戸田ＢＳ,,34.286347,133.119475,99723_1,,0,,,,
99802_1,,小倉駅前,,33.885805,130.882414,99802_1,,0,,,,
99802_2,,小倉駅前,,33.885672,130.882297,99802_2,,0,,,,
99806_1,,西鉄天神高速バスターミナル,,33.588400,130.400731,99806_1,,0,,,,
99806_2,,西鉄天神高速バスターミナル,,33.588031,130.400546,99806_2,,0,,,,
99808_1,,名鉄バスセンター,,35.169621,136.884492,99808_1,,0,,,,
99810_1,,京都駅八条口,,34.983896,135.760681,99810_1,,0,,,,
99811_1,,名神大山崎,,34.905426,135.694560,99811_1,,0,,,,
99812_1,,名神高槻,,34.861315,135.602954,99812_1,,0,,,,
99820_1,,神戸三宮,,34.695610,135.196087,99820_1,,0,,,,
99822_1,,高速舞子,,34.633804,135.034998,99822_1,,0,,,,
99822_2,,高速舞子,,34.633624,135.035539,99822_2,,0,,,,
99823_1,,ＵＳＪ,,34.669192,135.432817,99823_1,,0,,,,
99824_1,,有馬温泉（太閤橋）,,34.798920,135.247267,99824_1,,0,,,,
99826_1,,余戸南インター,,33.810716,132.734694,99826_1,,0,,,,
99826_2,,余戸南インター,,33.811417,132.734399,99826_2,,0,,,,
99827_1,,八百屋町,,34.072355,134.551045,99827_1,,0,,,,
99828_1,,松茂,,34.143252,134.576827,99828_1,,0,,,,
